circuit_id,circuit_name,circuit_url,country,date,event_id,event_name,event_slug,latitude,locality,longitude,round,season,time,url,year
albert_park,Albert Park Grand Prix Circuit,https://en.wikipedia.org/wiki/Albert_Park_Circuit,Australia,2016-03-20,2016-melbourne,Australian Grand Prix,melbourne,-37.8497,Melbourne,144.968,1,2016,05:00:00Z,https://en.wikipedia.org/wiki/2016_Australian_Grand_Prix,2016
bahrain,Bahrain International Circuit,https://en.wikipedia.org/wiki/Bahrain_International_Circuit,Bahrain,2016-04-03,2016-sakhir,Bahrain Grand Prix,sakhir,26.0325,Sakhir,50.5106,2,2016,15:00:00Z,https://en.wikipedia.org/wiki/2016_Bahrain_Grand_Prix,2016
shanghai,Shanghai International Circuit,https://en.wikipedia.org/wiki/Shanghai_International_Circuit,China,2016-04-17,2016-shanghai,Chinese Grand Prix,shanghai,31.3389,Shanghai,121.22,3,2016,06:00:00Z,https://en.wikipedia.org/wiki/2016_Chinese_Grand_Prix,2016
sochi,Sochi Autodrom,https://en.wikipedia.org/wiki/Sochi_Autodrom,Russia,2016-05-01,2016-sochi,Russian Grand Prix,sochi,43.4057,Sochi,39.9578,4,2016,12:00:00Z,https://en.wikipedia.org/wiki/2016_Russian_Grand_Prix,2016
catalunya,Circuit de Barcelona-Catalunya,https://en.wikipedia.org/wiki/Circuit_de_Barcelona-Catalunya,Spain,2016-05-15,2016-barcelona,Spanish Grand Prix,barcelona,41.57,Barcelona,2.26111,5,2016,12:00:00Z,https://en.wikipedia.org/wiki/2016_Spanish_Grand_Prix,2016
monaco,Circuit de Monaco,https://en.wikipedia.org/wiki/Circuit_de_Monaco,Monaco,2016-05-29,2016-monte-carlo,Monaco Grand Prix,monte-carlo,43.7347,Monte Carlo,7.42056,6,2016,12:00:00Z,https://en.wikipedia.org/wiki/2016_Monaco_Grand_Prix,2016
villeneuve,Circuit Gilles Villeneuve,https://en.wikipedia.org/wiki/Circuit_Gilles_Villeneuve,Canada,2016-06-12,2016-montreal,Canadian Grand Prix,montreal,45.5,Montreal,-73.5228,7,2016,18:00:00Z,https://en.wikipedia.org/wiki/2016_Canadian_Grand_Prix,2016
baku,Baku City Circuit,https://en.wikipedia.org/wiki/Baku_City_Circuit,Azerbaijan,2016-06-19,2016-baku,European Grand Prix,baku,40.3725,Baku,49.8533,8,2016,13:00:00Z,https://en.wikipedia.org/wiki/2016_European_Grand_Prix,2016
red_bull_ring,Red Bull Ring,https://en.wikipedia.org/wiki/Red_Bull_Ring,Austria,2016-07-03,2016-spielberg,Austrian Grand Prix,spielberg,47.2197,Spielberg,14.7647,9,2016,12:00:00Z,https://en.wikipedia.org/wiki/2016_Austrian_Grand_Prix,2016
silverstone,Silverstone Circuit,https://en.wikipedia.org/wiki/Silverstone_Circuit,UK,2016-07-10,2016-silverstone,British Grand Prix,silverstone,52.0786,Silverstone,-1.01694,10,2016,12:00:00Z,https://en.wikipedia.org/wiki/2016_British_Grand_Prix,2016
hungaroring,Hungaroring,https://en.wikipedia.org/wiki/Hungaroring,Hungary,2016-07-24,2016-budapest,Hungarian Grand Prix,budapest,47.5789,Budapest,19.2486,11,2016,12:00:00Z,https://en.wikipedia.org/wiki/2016_Hungarian_Grand_Prix,2016
hockenheimring,Hockenheimring,https://en.wikipedia.org/wiki/Hockenheimring,Germany,2016-07-31,2016-hockenheim,German Grand Prix,hockenheim,49.3278,Hockenheim,8.56583,12,2016,12:00:00Z,https://en.wikipedia.org/wiki/2016_German_Grand_Prix,2016
spa,Circuit de Spa-Francorchamps,https://en.wikipedia.org/wiki/Circuit_de_Spa-Francorchamps,Belgium,2016-08-28,2016-spa,Belgian Grand Prix,spa,50.4372,Spa,5.97139,13,2016,12:00:00Z,https://en.wikipedia.org/wiki/2016_Belgian_Grand_Prix,2016
monza,Autodromo Nazionale di Monza,https://en.wikipedia.org/wiki/Monza_Circuit,Italy,2016-09-04,2016-monza,Italian Grand Prix,monza,45.6156,Monza,9.28111,14,2016,12:00:00Z,https://en.wikipedia.org/wiki/2016_Italian_Grand_Prix,2016
marina_bay,Marina Bay Street Circuit,https://en.wikipedia.org/wiki/Marina_Bay_Street_Circuit,Singapore,2016-09-18,2016-marina-bay,Singapore Grand Prix,marina-bay,1.2914,Marina Bay,103.864,15,2016,12:00:00Z,https://en.wikipedia.org/wiki/2016_Singapore_Grand_Prix,2016
sepang,Sepang International Circuit,https://en.wikipedia.org/wiki/Sepang_International_Circuit,Malaysia,2016-10-02,2016-kuala-lumpur,Malaysian Grand Prix,kuala-lumpur,2.76083,Kuala Lumpur,101.738,16,2016,07:00:00Z,https://en.wikipedia.org/wiki/2016_Malaysian_Grand_Prix,2016
suzuka,Suzuka Circuit,https://en.wikipedia.org/wiki/Suzuka_International_Racing_Course,Japan,2016-10-09,2016-suzuka,Japanese Grand Prix,suzuka,34.8431,Suzuka,136.541,17,2016,05:00:00Z,https://en.wikipedia.org/wiki/2016_Japanese_Grand_Prix,2016
americas,Circuit of the Americas,https://en.wikipedia.org/wiki/Circuit_of_the_Americas,USA,2016-10-23,2016-austin,United States Grand Prix,austin,30.1328,Austin,-97.6411,18,2016,19:00:00Z,https://en.wikipedia.org/wiki/2016_United_States_Grand_Prix,2016
rodriguez,Autódromo Hermanos Rodríguez,https://en.wikipedia.org/wiki/Aut%C3%B3dromo_Hermanos_Rodr%C3%ADguez,Mexico,2016-10-30,2016-mexico-city,Mexican Grand Prix,mexico-city,19.4042,Mexico City,-99.0907,19,2016,19:00:00Z,https://en.wikipedia.org/wiki/2016_Mexican_Grand_Prix,2016
interlagos,Autódromo José Carlos Pace,https://en.wikipedia.org/wiki/Interlagos_Circuit,Brazil,2016-11-13,2016-s-o-paulo,Brazilian Grand Prix,s-o-paulo,-23.7036,São Paulo,-46.6997,20,2016,16:00:00Z,https://en.wikipedia.org/wiki/2016_Brazilian_Grand_Prix,2016
yas_marina,Yas Marina Circuit,https://en.wikipedia.org/wiki/Yas_Marina_Circuit,UAE,2016-11-27,2016-abu-dhabi,Abu Dhabi Grand Prix,abu-dhabi,24.4672,Abu Dhabi,54.6031,21,2016,13:00:00Z,https://en.wikipedia.org/wiki/2016_Abu_Dhabi_Grand_Prix,2016
